

[{"offers":[],"venue":{"street_address":"13501 Campground Rd","country":"United States","city":"Lanexa","latitude":"37.416672","name":"Ed Allen's Campgrounds","location":"Lanexa, VA","postal_code":"23089","region":"VA","longitude":"-76.94317699999999"},"starts_at":"2023-07-15T06:30:00","artist":{"thumb_url":"https:\/\/photos.bandsintown.com\/thumb\/14076592.jpeg","mbid":"","facebook_page_url":"http:\/\/www.facebook.com\/222214941280234","image_url":"https:\/\/photos.bandsintown.com\/large\/14076592.jpeg","tracker_count":360,"tracking":[{"type":"facebook_pixel_1","code":"5288745077811398"}],"upcoming_event_count":10,"url":"https:\/\/www.bandsintown.com\/a\/14037872?came_from=267&app_id=WIX_the-nashville-nights-band-90-s-country-reboot","support_url":"","show_multi_ticket":true,"name":"The Nashville Nights Band: 90's Country Reboot","options":{"display_listen_unit":false},"links":[{"type":"instagram","url":"https:\/\/www.instagram.com\/nashvillenightsband\/"},{"type":"website","url":"http:\/\/www.NashvilleNightsBand.com"},{"type":"facebook","url":"https:\/\/www.facebook.com\/nashvillenightsband\/"}],"artist_optin_show_phone_number":false,"id":"14037872"},"festival_datetime_display_rule":"","description":"90's Country @ Ed Allen's Campground","lineup":["The Nashville Nights Band: 90's Country Reboot"],"festival_start_date":"","bandsintown_plus":false,"title":"","artist_id":"14037872","url":"https:\/\/www.bandsintown.com\/e\/103999169?app_id=WIX_the-nashville-nights-band-90-s-country-reboot&came_from=267&utm_medium=api&utm_source=public_api&utm_campaign=event","datetime_display_rule":"datetime","datetime":"2023-07-15T06:30:00","on_sale_datetime":"","id":"103999169","ends_at":"","festival_end_date":""},{"offers":[],"venue":{"street_address":"1511 Townfield Dr","country":"United States","city":"Cape Charles","latitude":"37.2854323","name":"Cherrystone Family Camping Resort","location":"Cape Charles, VA","postal_code":"23310","region":"VA","longitude":"-76.0104544"},"starts_at":"2023-07-22T19:00:00","festival_datetime_display_rule":"","description":"","lineup":["The Nashville Nights Band: 90's Country Reboot"],"festival_start_date":"","bandsintown_plus":false,"title":"","artist_id":"14037872","url":"https:\/\/www.bandsintown.com\/e\/104085373?app_id=WIX_the-nashville-nights-band-90-s-country-reboot&came_from=267&utm_medium=api&utm_source=public_api&utm_campaign=event","datetime_display_rule":"datetime","datetime":"2023-07-22T19:00:00","on_sale_datetime":"","id":"104085373","ends_at":"","festival_end_date":""},{"offers":[],"venue":{"street_address":"317 Monticello Ave","country":"United States","city":"Norfolk","latitude":"36.8501866","name":"The NorVa","location":"Norfolk, VA","postal_code":"23510","region":"VA","longitude":"-76.28949279999999"},"starts_at":"2023-07-29T20:00:00","festival_datetime_display_rule":"","description":"","lineup":["The Nashville Nights Band: 90's Country Reboot"],"festival_start_date":"","bandsintown_plus":false,"title":"","artist_id":"14037872","url":"https:\/\/www.bandsintown.com\/e\/104085394?app_id=WIX_the-nashville-nights-band-90-s-country-reboot&came_from=267&utm_medium=api&utm_source=public_api&utm_campaign=event","datetime_display_rule":"datetime","datetime":"2023-07-29T20:00:00","on_sale_datetime":"","id":"104085394","ends_at":"","festival_end_date":""},{"offers":[],"venue":{"street_address":"191 Walt Whitman Ave","country":"United States","city":"Newport News","latitude":"37.0827576","name":"Port Warwick Concert Series ","location":"Newport News, VA","postal_code":"23606","region":"VA","longitude":"-76.48704719999999"},"starts_at":"2023-08-09T18:00:00","festival_datetime_display_rule":"","description":"","lineup":["The Nashville Nights Band: 90's Country Reboot"],"festival_start_date":"","bandsintown_plus":false,"title":"Port Warwick Concert Series ","artist_id":"14037872","url":"https:\/\/www.bandsintown.com\/e\/104100199?app_id=WIX_the-nashville-nights-band-90-s-country-reboot&came_from=267&utm_medium=api&utm_source=public_api&utm_campaign=event","datetime_display_rule":"datetime","datetime":"2023-08-09T18:00:00","on_sale_datetime":"","id":"104100199","ends_at":"","festival_end_date":""},{"offers":[],"venue":{"street_address":"1511 Townfield Dr","country":"United States","city":"Cape Charles","latitude":"37.2854323","name":"Cherrystone Family Camping Resort","location":"Cape Charles, VA","postal_code":"23310","region":"VA","longitude":"-76.0104544"},"starts_at":"2023-08-19T19:00:00","festival_datetime_display_rule":"","description":"","lineup":["The Nashville Nights Band: 90's Country Reboot"],"festival_start_date":"","bandsintown_plus":false,"title":"","artist_id":"14037872","url":"https:\/\/www.bandsintown.com\/e\/104085477?app_id=WIX_the-nashville-nights-band-90-s-country-reboot&came_from=267&utm_medium=api&utm_source=public_api&utm_campaign=event","datetime_display_rule":"datetime","datetime":"2023-08-19T19:00:00","on_sale_datetime":"","id":"104085477","ends_at":"","festival_end_date":""},{"offers":[],"venue":{"street_address":"4165 Mears Ave","country":"United States","city":"Chesapeake Beach","latitude":"38.6901094","name":"Chesapeake Beach Resort & Spa","location":"Chesapeake Beach, MD","postal_code":"20732","region":"MD","longitude":"-76.53305599999999"},"starts_at":"2023-09-01T19:00:00","festival_datetime_display_rule":"","description":"We make our return to Rod 'N' Reel ","lineup":["The Nashville Nights Band: 90's Country Reboot"],"festival_start_date":"","bandsintown_plus":false,"title":"","artist_id":"14037872","url":"https:\/\/www.bandsintown.com\/e\/104251760?app_id=WIX_the-nashville-nights-band-90-s-country-reboot&came_from=267&utm_medium=api&utm_source=public_api&utm_campaign=event","datetime_display_rule":"datetime","datetime":"2023-09-01T19:00:00","on_sale_datetime":"","id":"104251760","ends_at":"2023-09-01T21:30:00","festival_end_date":""},{"offers":[],"venue":{"street_address":"504 N King St","country":"United States","city":"Hampton","latitude":"37.0312325","name":"The Vanguard Brewpub & Distillery","location":"Hampton, VA","postal_code":"23669","region":"VA","longitude":"-76.3455599"},"starts_at":"2023-09-02T20:00:00","festival_datetime_display_rule":"","description":"","lineup":["The Nashville Nights Band: 90's Country Reboot"],"festival_start_date":"","bandsintown_plus":false,"title":"","artist_id":"14037872","url":"https:\/\/www.bandsintown.com\/e\/103945991?app_id=WIX_the-nashville-nights-band-90-s-country-reboot&came_from=267&utm_medium=api&utm_source=public_api&utm_campaign=event","datetime_display_rule":"datetime","datetime":"2023-09-02T20:00:00","on_sale_datetime":"","id":"103945991","ends_at":"","festival_end_date":""},{"offers":[],"venue":{"street_address":"504 N King St","country":"United States","city":"Hampton","latitude":"37.0312325","name":"Halloween Bash! ","location":"Hampton, VA","postal_code":"23669","region":"VA","longitude":"-76.3455599"},"starts_at":"2023-10-28T20:00:00","festival_datetime_display_rule":"","description":"","lineup":["The Nashville Nights Band: 90's Country Reboot"],"festival_start_date":"","bandsintown_plus":false,"title":"Halloween Bash! ","artist_id":"14037872","url":"https:\/\/www.bandsintown.com\/e\/103946007?app_id=WIX_the-nashville-nights-band-90-s-country-reboot&came_from=267&utm_medium=api&utm_source=public_api&utm_campaign=event","datetime_display_rule":"datetime","datetime":"2023-10-28T20:00:00","on_sale_datetime":"","id":"103946007","ends_at":"","festival_end_date":""},{"offers":[],"venue":{"street_address":"2384 Princess Anne Rd","country":"United States","city":"Virginia Beach","latitude":"36.7530132","name":"Private Wedding","location":"Virginia Beach, VA","postal_code":"23456","region":"VA","longitude":"-76.0533708"},"starts_at":"2023-11-04T00:00:00","festival_datetime_display_rule":"","description":"Yes! We do private events like weddings and corporate events. No you can't crash it. Contact us for details. ","lineup":["The Nashville Nights Band: 90's Country Reboot"],"festival_start_date":"","bandsintown_plus":false,"title":"Private Wedding","artist_id":"14037872","url":"https:\/\/www.bandsintown.com\/e\/104311232?app_id=WIX_the-nashville-nights-band-90-s-country-reboot&came_from=267&utm_medium=api&utm_source=public_api&utm_campaign=event","datetime_display_rule":"datetime","datetime":"2023-11-04T00:00:00","on_sale_datetime":"","id":"104311232","ends_at":"2023-11-04T23:30:00","festival_end_date":""},{"offers":[],"venue":{"street_address":"504 N King St","country":"United States","city":"Hampton","latitude":"37.0312325","name":"New Years Eve Celebration ","location":"Hampton, VA","postal_code":"23669","region":"VA","longitude":"-76.3455599"},"starts_at":"2023-12-31T20:00:00","festival_datetime_display_rule":"","description":"We are ringing in the New Year, and there's no better place to be to kick off 2024. ","lineup":["The Nashville Nights Band: 90's Country Reboot"],"festival_start_date":"","bandsintown_plus":false,"title":"New Years Eve Celebration ","artist_id":"14037872","url":"https:\/\/www.bandsintown.com\/e\/103730880?app_id=WIX_the-nashville-nights-band-90-s-country-reboot&came_from=267&utm_medium=api&utm_source=public_api&utm_campaign=event","datetime_display_rule":"datetime","datetime":"2023-12-31T20:00:00","on_sale_datetime":"","id":"103730880","ends_at":"","festival_end_date":""}]
